name,latitude,longitude,pollution,population,district
Almaty Center,43.2389,76.8897,70,12000,Almaly
Medeu,43.1635,77.0583,40,4000,Medeu
Bostandyk,43.2220,76.8512,60,9000,Bostandyk
Alatau,43.2567,76.7712,55,7000,Alatau
Auezov,43.2560,76.8260,65,8500,Auezov
Turksib,43.3438,76.9582,75,6000,Turksib
Nauryzbay,43.2045,76.7648,45,5000,Nauryzbay
